City_ID,City,Lat,Lng,Max Temp,Humidity,Cloudiness,Wind Speed,Country,Date
0,clyde river,70.4692,-68.5914,-23.87,64,100,3.6,CA,1677089720
1,upernavik,72.7868,-56.1549,-23.59,90,100,12.09,GL,1677089723
2,nazarovo,56.0064,90.3914,-15.08,99,56,2.23,RU,1677089724
3,omboue,-1.5746,9.2618,26.62,84,82,3.16,GA,1677089725
4,hermanus,-34.4187,19.2345,18.78,73,22,4.44,ZA,1677089726
5,caravelas,-17.7125,-39.2481,28.62,58,100,3.64,BR,1677089727
6,uruana,-15.4981,-49.6875,24.99,83,99,1.69,BR,1677089727
7,viedma,-40.8135,-62.9967,31.26,27,2,4.09,AR,1677089728
8,progreso,21.2833,-89.6667,32.28,44,4,5.64,MX,1677089729
9,coquimbo,-29.9533,-71.3436,21.85,64,40,5.66,CL,1677089730
10,granadilla de abona,28.1188,-16.576,16.37,76,40,5.66,ES,1677089733
11,hovd,48.0056,91.6419,-14.4,83,28,1.3,MN,1677089733
12,fare,-16.7,-151.0167,26.83,74,100,1.84,PF,1677089734
13,kodiak,57.79,-152.4072,-3.27,100,0,1.54,US,1677089735
14,rikitea,-23.1203,-134.9692,26.6,71,43,5.27,PF,1677089736
15,kavieng,-2.5744,150.7967,27.47,79,100,7.46,PG,1677089737
16,atuona,-9.8,-139.0333,26.4,77,50,8.02,PF,1677089739
17,broome,42.2506,-75.833,1.12,82,100,3.6,US,1677089739
18,lazaro cardenas,17.9583,-102.2,28.86,48,100,3.03,MX,1677089740
19,port alfred,-33.5906,26.891,20.66,90,0,0.45,ZA,1677089741
20,san patricio,28.017,-97.5169,31.71,35,3,3.89,US,1677089742
21,punta arenas,-53.15,-70.9167,11.06,46,75,16.46,CL,1677089743
22,hammerfest,70.6634,23.6821,-6.75,63,100,7.72,NO,1677089744
23,okakarara,-20.5833,17.4333,26.08,20,4,3.23,NA,1677089744
24,asau,46.4333,26.4,2.51,88,86,0.36,RO,1677089744
25,butaritari,3.0707,172.7902,27.2,77,91,8.19,KI,1677089745
26,east london,-33.0153,27.9116,22.52,83,0,3.6,ZA,1677089745
27,bluff,-46.6,168.3333,11.56,71,97,7.31,NZ,1677089746
28,punganuru,13.3667,78.5833,17.61,65,0,1.77,IN,1677089746
29,airai,-8.9266,125.4092,16.05,93,98,1.35,TL,1677089747
30,mar del plata,-38.0023,-57.5575,31.57,51,0,5.66,AR,1677089747
31,nordby,55.446,8.3979,7.36,90,75,5.14,DK,1677089747
32,qaanaaq,77.484,-69.3632,-23.16,51,3,4.16,GL,1677089730
33,busselton,-33.65,115.3333,16.87,76,60,3.12,AU,1677089749
34,bambous virieux,-20.3428,57.7575,26.23,78,40,3.09,MU,1677089749
35,faanui,-16.4833,-151.75,26.98,74,100,2.68,PF,1677089749
36,sehwan,26.4279,67.863,22.87,21,81,2.07,PK,1677089750
37,bredasdorp,-34.5322,20.0403,19.28,68,17,4.0,ZA,1677089624
38,saint-philippe,-21.3585,55.7679,26.77,80,52,5.44,RE,1677089750
39,ushuaia,-54.8,-68.3,9.81,50,40,11.83,AR,1677089751
40,bethel,41.3712,-73.414,5.52,60,100,2.06,US,1677089562
41,plouzane,48.3833,-4.6167,6.18,70,40,5.66,FR,1677089752
42,merke,42.8728,73.1786,6.13,72,100,0.88,KZ,1677089752
43,fairbanks,64.8378,-147.7164,-12.73,79,75,0.0,US,1677089700
44,madang,-5.2246,145.7966,24.39,91,100,2.22,PG,1677089753
45,hobart,-42.8794,147.3294,12.92,71,97,3.6,AU,1677089753
46,vaini,-21.2,-175.2,25.09,100,40,0.51,TO,1677089754
47,provideniya,64.3833,-173.3,-3.94,97,100,4.6,RU,1677089755
48,kondoa,-4.9,35.7833,21.64,58,96,1.56,TZ,1677089755
49,arraial do cabo,-22.9661,-42.0278,29.92,66,20,2.06,BR,1677089756
50,marzuq,14.4,46.4667,16.79,40,12,3.15,YE,1677089757
51,geraldton,-28.7667,114.6,22.23,68,100,8.75,AU,1677089757
52,curumani,9.1999,-73.5427,37.31,26,47,1.3,CO,1677089758
53,bintulu,3.1667,113.0333,24.54,85,100,0.35,MY,1677089758
54,hilo,19.7297,-155.09,22.93,94,75,2.24,US,1677089728
55,shakhunya,57.6758,46.6114,-15.23,97,98,3.31,RU,1677089759
56,buala,-8.145,159.5921,25.76,85,100,1.37,SB,1677089759
57,bojnurd,37.4747,57.329,7.46,46,7,3.59,IR,1677089760
58,mataura,-46.1927,168.8643,11.38,99,97,0.74,NZ,1677089760
59,tiksi,71.6872,128.8694,-20.34,99,100,1.87,RU,1677089762
60,meulaboh,4.1363,96.1285,25.18,88,99,1.74,ID,1677089763
61,vezirkopru,41.1436,35.4547,9.27,80,96,1.53,TR,1677089764
62,albany,42.6001,-73.9662,2.75,53,86,1.75,US,1677089524
63,bengkulu,-3.8004,102.2655,24.2,90,100,2.96,ID,1677089765
64,boa vista,2.8197,-60.6733,31.99,40,75,6.17,BR,1677089488
65,mahebourg,-20.4081,57.7,26.25,78,40,3.09,MU,1677089766
66,kapaa,22.0752,-159.319,24.18,79,100,9.26,US,1677089735
67,luderitz,-26.6481,15.1594,20.06,68,0,5.8,NA,1677089767
68,kiunga,-6.1219,141.2906,22.44,100,100,0.29,PG,1677089767
69,yellowknife,62.456,-114.3525,-26.36,76,20,5.66,CA,1677089768
70,khatanga,71.9667,102.5,-21.42,99,100,1.87,RU,1677089769
71,olafsvik,64.8945,-23.7142,3.31,98,100,6.03,IS,1677089770
72,vila franca do campo,37.7167,-25.4333,14.23,92,100,1.77,PT,1677089771
73,thio,-21.6167,166.2167,21.98,85,89,3.53,NC,1677089772
74,torbay,47.6666,-52.7314,-0.79,95,100,9.77,CA,1677089773
75,ambikapur,23.1167,83.2,18.02,21,9,1.04,IN,1677089773
76,beyneu,45.3167,55.2,3.53,81,100,8.13,KZ,1677089774
77,guangyuan,32.442,105.823,7.69,85,100,0.56,CN,1677089775
78,denpasar,-8.65,115.2167,27.81,83,40,5.66,ID,1677089524
79,avarua,-21.2078,-159.775,24.03,94,47,0.51,CK,1677089776
80,grand island,40.925,-98.342,-7.84,83,100,11.32,US,1677089767
81,salalah,17.0151,54.0924,22.55,43,1,1.05,OM,1677089778
82,dingle,10.9995,122.6711,23.59,94,100,2.87,PH,1677089779
83,jamestown,42.097,-79.2353,-0.23,100,100,4.63,US,1677089780
84,zhigansk,66.7697,123.3711,-27.52,100,94,0.66,RU,1677089539
85,umm kaddadah,13.6017,26.6876,23.82,12,12,5.69,SD,1677089781
86,yulara,-25.2406,130.9889,25.85,31,1,4.19,AU,1677089781
87,shimoda,34.6667,138.95,6.17,76,100,3.58,JP,1677089782
88,kupang,-10.1667,123.5833,25.83,87,100,3.18,ID,1677089783
89,karratha,-20.7377,116.8463,27.62,77,80,4.29,AU,1677089784
90,cherskiy,68.75,161.3,-32.99,98,100,3.7,RU,1677089785
91,cape town,-33.9258,18.4232,20.62,68,0,7.72,ZA,1677089785
92,narsaq,60.9167,-46.05,-3.88,90,73,2.77,GL,1677089786
93,chokurdakh,70.6333,147.9167,-41.16,100,57,2.62,RU,1677089787
94,tuktoyaktuk,69.4541,-133.0374,-36.0,75,0,3.09,CA,1677089787
95,montbrison,45.6667,4.0833,9.19,90,95,0.56,FR,1677089788
96,novikovo,51.1537,37.8879,-15.95,96,72,3.48,RU,1677089789
97,hithadhoo,-0.6,73.0833,27.57,75,100,5.77,MV,1677089790
98,saint-denis,48.9167,2.3333,9.57,88,100,1.54,FR,1677089790
99,cetraro,39.5166,15.9416,13.37,82,7,0.84,IT,1677089791
100,tarsus,36.9188,34.8784,12.93,79,4,1.82,TR,1677089792
101,saint john,45.2727,-66.0677,2.57,38,75,7.2,CA,1677089602
102,portsmouth,50.799,-1.0913,8.43,83,88,2.68,GB,1677089793
103,ahipara,-35.1667,173.1667,17.08,91,100,1.68,NZ,1677089793
104,sweetwater,25.7634,-80.3731,30.56,61,40,5.14,US,1677089794
105,barrow,71.2906,-156.7887,-20.99,77,100,11.83,US,1677089795
106,les cayes,18.2,-73.75,27.97,57,79,5.91,HT,1677089796
107,bitung,1.4451,125.1824,24.47,85,92,3.21,ID,1677089796
108,touros,-5.1989,-35.4608,29.72,66,53,5.88,BR,1677089797
109,sorland,67.667,12.6934,3.92,97,100,15.22,NO,1677089798
110,half moon bay,37.4636,-122.4286,10.25,64,40,9.77,US,1677089731
111,abu dhabi,24.4667,54.3667,23.3,51,17,3.12,AE,1677089407
112,dunedin,-45.8742,170.5036,9.01,88,86,4.23,NZ,1677089800
113,dongsheng,39.8161,109.9776,-1.14,64,95,1.35,CN,1677089801
114,middletown,39.5151,-84.3983,21.64,76,100,2.57,US,1677089776
115,lima,-12.0432,-77.0282,27.14,57,0,7.72,PE,1677089441
116,rio grande,-32.035,-52.0986,30.06,58,89,6.33,BR,1677089802
117,carutapera,-1.195,-46.02,26.93,84,81,2.31,BR,1677089803
118,tiarei,-17.5333,-149.3333,29.01,73,100,0.95,PF,1677089804
119,puerto ayora,-0.7393,-90.3518,28.98,87,87,0.45,EC,1677089804
120,hualmay,-11.0964,-77.6139,26.14,69,97,4.77,PE,1677089805
121,kattivakkam,13.2167,80.3167,26.71,75,0,2.42,IN,1677089805
122,saint-augustin,51.226,-58.6502,-8.53,80,74,1.06,CA,1677089806
123,new norfolk,-42.7826,147.0587,12.72,61,97,1.25,AU,1677089806
124,cozumel,20.5083,-86.9458,29.04,67,40,7.6,MX,1677089660
125,saint-francois,46.4154,3.9054,9.42,95,100,1.54,FR,1677089807
126,san quintin,30.4833,-115.95,11.84,63,100,9.19,MX,1677089807
127,hami,42.8,93.45,2.48,50,63,0.8,CN,1677089807
128,luwuk,-0.9516,122.7875,25.63,83,81,1.58,ID,1677089808
129,sao joao da barra,-21.6403,-41.0511,31.05,78,17,5.41,BR,1677089808
130,richards bay,-28.783,32.0377,21.68,78,45,2.18,ZA,1677089809
131,thompson,55.7435,-97.8558,-25.91,58,20,4.12,CA,1677089809
132,mmathubudukwane,-24.6,26.4333,23.41,58,5,2.28,BW,1677089810
133,biltine,14.5333,20.9167,29.32,11,0,4.35,TD,1677089810
134,pingliang,35.5392,106.6861,1.05,85,95,1.71,CN,1677089811
135,carnarvon,-24.8667,113.6333,23.66,81,8,9.44,AU,1677089811
136,jalu,29.0331,21.5482,15.97,50,42,2.66,LY,1677089812
137,talnakh,69.4865,88.3972,-11.55,90,99,4.6,RU,1677089812
138,abu samrah,35.3029,37.1841,11.93,63,34,2.22,SY,1677089812
139,mitsamiouli,-11.3847,43.2844,27.82,72,100,2.07,KM,1677089813
140,dikson,73.5069,80.5464,-24.03,99,92,3.19,RU,1677089814
141,pangnirtung,66.1451,-65.7125,-35.0,68,20,0.0,CA,1677089814
142,tocopilla,-22.092,-70.1979,23.93,68,0,2.35,CL,1677089815
143,la ronge,55.1001,-105.2842,-26.86,43,0,2.06,CA,1677089815
144,merauke,-8.4667,140.3333,26.36,85,100,3.67,ID,1677089815
145,iskar,43.45,24.2667,12.92,58,0,2.06,BG,1677089816
146,kaitangata,-46.2817,169.8464,7.11,90,92,2.04,NZ,1677089816
147,biak,-0.9131,122.8766,25.03,83,81,1.78,ID,1677089817
148,bonfim,3.0833,-59.95,33.88,34,83,2.73,BR,1677089817
149,neryungri,56.6709,124.6491,-18.48,97,100,2.75,RU,1677089818
150,lagoa,39.05,-27.9833,14.16,84,100,11.52,PT,1677089818
151,flinders,-34.5833,150.8552,16.77,83,98,0.89,AU,1677089818
152,kudahuvadhoo,2.6708,72.8944,27.4,76,78,5.17,MV,1677089819
153,sumenep,-7.0167,113.8667,24.68,90,94,6.74,ID,1677089819
154,hokitika,-42.7167,170.9667,10.99,77,65,3.34,NZ,1677089820
155,victoria,22.2855,114.1577,17.03,79,49,5.36,HK,1677089586
156,ilulissat,69.2167,-51.1,-18.99,78,75,6.69,GL,1677089821
157,sinnamary,5.3833,-52.95,23.88,94,100,3.96,GF,1677089821
158,la troncal,-2.4,-79.3333,26.58,82,92,0.51,EC,1677089822
159,saldanha,-33.0117,17.9442,17.88,78,48,8.23,ZA,1677089823
160,faya,18.3851,42.4509,14.29,57,0,1.95,SA,1677089824
161,bandarbeyla,9.4942,50.8122,24.18,73,15,6.23,SO,1677089825
162,puerto escondido,15.85,-97.0667,30.46,70,75,6.17,MX,1677089825
163,qaqortoq,60.7167,-46.0333,-7.8,84,54,2.96,GL,1677089828
164,sabang,5.8933,95.3214,27.04,78,86,4.91,ID,1677089829
165,sun prairie,43.1836,-89.2137,-0.84,90,100,7.72,US,1677089830
166,truro,50.2653,-5.0544,6.6,77,40,7.2,GB,1677089630
167,camacha,33.0833,-16.3333,13.68,82,75,2.06,PT,1677089831
168,sitka,57.0531,-135.33,-1.06,47,0,0.0,US,1677089630
169,west wendover,40.7391,-114.0733,-3.44,63,0,13.38,US,1677089832
170,georgetown,5.4112,100.3354,26.96,83,40,1.54,MY,1677089606
171,rio gallegos,-51.6226,-69.2181,12.03,40,100,13.89,AR,1677089834
172,mezen,65.8522,44.24,-10.44,97,100,2.29,RU,1677089835
173,hofn,64.2539,-15.2082,0.01,59,20,2.06,IS,1677089836
174,manggar,-2.8833,108.2667,26.11,83,98,5.04,ID,1677089837
175,bandundu,-3.3167,17.3667,20.94,91,100,1.83,CD,1677089838
176,kangaatsiaq,68.3065,-53.4641,-23.21,92,100,2.39,GL,1677089838
177,vanimo,-2.6741,141.3028,24.94,91,96,4.6,PG,1677089839
178,pevek,69.7008,170.3133,-23.11,99,100,3.76,RU,1677089840
179,srednekolymsk,67.45,153.6833,-40.63,100,99,2.22,RU,1677089840
180,roma,43.2128,-75.4557,1.49,62,100,0.0,US,1677089551
181,mirandela,41.4874,-7.187,12.39,79,63,6.34,PT,1677089842
182,bogorodskoye,56.55,37.8833,-13.61,94,100,4.55,RU,1677089842
183,chuy,-33.6971,-53.4616,27.48,45,19,5.5,UY,1677089843
184,bay roberts,47.5999,-53.2648,-0.37,96,100,4.92,CA,1677089843
185,esperance,-33.8667,121.9,19.87,90,100,3.44,AU,1677089845
186,castro,-24.7911,-50.0119,22.79,81,54,2.57,BR,1677089846
187,seoul,37.5683,126.9778,-0.34,46,81,0.88,KR,1677089814
188,shache,38.4167,77.2406,2.69,44,10,1.73,CN,1677089848
189,guerrero negro,27.9769,-114.0611,14.82,74,89,6.81,MX,1677089849
190,inverness,57.4791,-4.224,4.95,79,20,2.06,GB,1677089629
191,husavik,66.0449,-17.3389,-5.7,77,75,4.8,IS,1677089850
192,klaksvik,62.2266,-6.589,3.51,57,69,7.06,FO,1677089850
193,chipata,-13.6333,32.65,19.29,95,100,2.29,ZM,1677089852
194,bilma,18.6853,12.9164,24.51,13,3,3.88,NE,1677089612
195,lebu,-37.6167,-73.65,18.11,63,5,7.51,CL,1677089854
196,kytmanovo,53.4593,85.4479,-7.08,95,56,2.65,RU,1677089855
197,bubaque,11.2833,-15.8333,24.05,73,54,5.45,GW,1677089856
198,colombo,6.9319,79.8478,25.83,66,63,0.88,LK,1677089856
199,merritt island,28.5392,-80.672,30.05,62,0,5.66,US,1677089857
200,hanmer springs,-42.5167,172.8167,8.37,97,100,1.34,NZ,1677089858
201,kenitra,34.261,-6.5802,16.42,83,29,4.68,MA,1677089859
202,alencon,48.4333,0.0833,6.77,89,100,3.78,FR,1677089859
203,pisco,-13.7,-76.2167,27.03,69,0,4.63,PE,1677089860
204,wright,45.1833,-93.9502,-5.62,69,100,7.2,US,1677089860
205,kumeny,58.1089,49.9161,-16.0,99,99,3.03,RU,1677089861
206,masaya,11.9744,-86.0942,30.81,39,6,6.59,NI,1677089861
207,grand forks,47.9417,-97.4337,-22.34,64,75,9.26,US,1677089862
208,alta floresta,-9.8756,-56.0861,22.46,95,100,0.74,BR,1677089862
209,pereslavl-zalesskiy,56.7393,38.8563,-13.75,93,100,4.68,RU,1677089863
210,sabha,27.0377,14.4283,16.16,20,0,2.34,LY,1677089864
211,rey bouba,8.6724,14.1786,33.26,12,80,3.44,CM,1677089864
212,longyearbyen,78.2186,15.6401,-1.09,74,75,8.75,SJ,1677089865
213,clearlake,38.9582,-122.6264,6.24,51,38,4.54,US,1677089865
214,lerwick,60.1545,-1.1494,4.0,55,84,8.52,GB,1677089866
215,jiexiu,37.0244,111.9125,3.56,70,12,1.49,CN,1677089866
216,najran,17.4924,44.1277,19.75,13,0,1.11,SA,1677089867
217,matara,5.9485,80.5353,23.34,80,75,4.19,LK,1677089867
218,conceicao da barra,-18.5933,-39.7322,29.2,59,100,3.58,BR,1677089868
219,port lincoln,-34.7333,135.8667,25.82,51,90,7.55,AU,1677089727
220,lodja,-3.4833,23.4333,21.4,91,92,0.78,CD,1677089868
221,bairiki,1.3292,172.9752,27.0,89,75,4.63,KI,1677089869
222,saskylakh,71.9167,114.0833,-39.59,100,87,1.28,RU,1677089869
223,buraydah,26.326,43.975,21.49,24,1,5.23,SA,1677089796
224,shingu,33.7333,135.9833,6.46,74,100,2.15,JP,1677089870
225,osorno,-40.5667,-73.15,24.17,50,40,2.57,CL,1677089870
226,waddan,29.1614,16.139,16.76,19,0,2.31,LY,1677089871
227,san rafael del sur,11.8485,-86.4384,31.54,36,2,7.53,NI,1677089871
228,ugoofaaru,5.6667,73.0,27.48,74,11,3.84,MV,1677089872
229,trelew,-43.249,-65.3051,31.03,16,85,8.69,AR,1677089872
230,tarauaca,-8.1614,-70.7656,29.97,64,58,1.85,BR,1677089872
231,kahului,20.8947,-156.47,24.91,80,20,3.58,US,1677089806
232,alofi,-19.0595,-169.9187,27.38,76,12,9.56,NU,1677089873
233,yerbogachen,61.2767,108.0108,-25.87,100,94,1.46,RU,1677089873
234,avera,33.194,-82.5271,25.31,66,76,6.52,US,1677089874
235,yumen,40.2833,97.2,-0.66,43,28,4.54,CN,1677089874
236,jaciara,-15.9653,-54.9683,26.19,71,89,2.34,BR,1677089875
237,cidreira,-30.1811,-50.2056,24.76,65,17,5.22,BR,1677089875
238,severo-kurilsk,50.6789,156.125,-5.21,65,95,11.38,RU,1677089875
239,mae hong son,19.3003,97.9685,19.21,59,3,0.64,TH,1677089876
240,coihaique,-45.5752,-72.0662,20.34,40,40,5.66,CL,1677089877
241,nokaneng,-19.6667,22.2667,26.43,51,65,2.49,BW,1677089878
242,pacific grove,36.6177,-121.9166,9.94,66,75,10.28,US,1677089879
243,peniche,39.3558,-9.3811,14.05,81,58,9.49,PT,1677089879
244,biggar,55.6167,-3.5167,6.27,85,100,1.56,GB,1677089880
245,erenhot,43.6475,111.9767,-4.7,42,3,2.43,CN,1677089880
246,sao filipe,14.8961,-24.4956,22.96,70,59,5.71,CV,1677089881
247,falun,60.6036,15.626,-2.77,79,100,4.02,SE,1677089881
248,emerald,-23.5333,148.1667,19.08,83,2,3.12,AU,1677089882
249,ponta do sol,32.6667,-17.1,17.23,83,85,2.04,PT,1677089883
250,cayenne,4.9333,-52.3333,27.02,78,75,3.6,GF,1677089884
251,sile,41.1754,29.6133,11.43,55,56,2.35,TR,1677089884
252,omsukchan,62.5333,155.8,-33.0,95,86,2.51,RU,1677089885
253,nome,64.5011,-165.4064,0.09,100,100,8.75,US,1677089629
254,novotroitskaya,45.3267,41.5253,0.22,87,84,4.49,RU,1677089886
255,kingston,17.997,-76.7936,28.47,71,4,3.13,JM,1677089653
256,manono,-7.3,27.4167,19.49,94,94,3.47,CD,1677089887
257,ballymena,54.8636,-6.2763,7.25,83,35,9.01,GB,1677089888
258,belmonte,-15.8631,-38.8828,28.63,61,99,3.96,BR,1677089888
259,dawson creek,55.7666,-120.2362,-28.2,76,20,0.0,CA,1677089889
260,vila velha,-20.3297,-40.2925,30.97,72,20,6.17,BR,1677089890
261,nosy varika,-20.5833,48.5333,25.81,88,12,3.66,MG,1677089890
262,san pablo jocopilas,14.5833,-91.45,31.94,46,47,2.67,GT,1677089891
263,tasiilaq,65.6145,-37.6368,-6.91,95,100,2.7,GL,1677089892
264,ribeira grande,38.5167,-28.7,17.22,77,20,7.72,PT,1677089893
265,rapid city,44.0805,-103.231,-17.6,78,100,7.72,US,1677089710
266,port-cartier,50.0334,-66.8654,-6.94,70,100,5.97,CA,1677089894
267,uige,-7.6087,15.0613,20.99,91,86,1.55,AO,1677089894
268,laohekou,32.3858,111.6678,4.49,80,99,1.29,CN,1677089895
269,wewak,-3.5534,143.6268,25.63,87,100,4.09,PG,1677089896
270,madera,37.1666,-119.8343,8.02,81,33,2.67,US,1677089897
271,makakilo city,21.3469,-158.0858,23.58,73,40,4.12,US,1677089897
272,myitkyina,25.3833,97.4,17.41,71,10,1.15,MM,1677089898
273,port moresby,-9.4431,147.1797,24.32,86,100,3.42,PG,1677089899
274,aykhal,66.0,111.5,-17.13,97,99,4.49,RU,1677089899
275,nanortalik,60.1432,-45.2371,-4.85,75,100,7.1,GL,1677089900
276,roald,62.5833,6.1333,4.08,87,75,5.14,NO,1677089901
277,bilibino,68.0546,166.4372,-27.05,99,100,0.92,RU,1677089901
278,katangli,51.7102,143.2326,-18.5,95,37,4.57,RU,1677089902
279,colares,38.7992,-9.4469,15.61,72,40,8.05,PT,1677089903
280,petropavlovsk-kamchatskiy,53.0452,158.6483,-16.67,72,0,3.0,RU,1677089778
281,kayiry,46.9454,33.7059,0.76,68,44,3.3,UA,1677089904
282,muzaffarabad,34.37,73.4711,12.46,57,19,2.68,PK,1677089905
283,nassau,40.7507,-73.5829,7.1,54,100,1.54,US,1677089905
284,iqaluit,63.7506,-68.5145,-32.95,67,75,1.54,CA,1677089906
285,jiangyin,31.9282,120.3126,5.01,82,98,2.28,CN,1677089907
286,kota bahru,6.1333,102.2386,23.84,84,76,2.32,MY,1677089908
287,coahuayana,18.7333,-103.6833,31.55,31,59,2.72,MX,1677089909
288,namibe,-15.1961,12.1522,23.05,71,39,6.7,AO,1677089909
289,passo de camaragibe,-9.2368,-35.4901,29.75,55,100,4.31,BR,1677089910
290,santo angelo,-28.2992,-54.2631,35.87,20,85,2.14,BR,1677089910
291,nyurba,63.2842,118.3319,-27.84,100,87,1.41,RU,1677089911
292,trairi,-3.2778,-39.2689,28.91,71,100,5.14,BR,1677089641
293,sturgis,41.7992,-85.4192,0.81,100,100,6.17,US,1677089912
294,barra do garcas,-15.89,-52.2567,26.28,78,99,0.89,BR,1677089913
295,guadalupe y calvo,26.1,-106.9667,9.43,32,9,6.65,MX,1677089914
296,uyuni,-20.4597,-66.825,17.68,23,13,5.94,BO,1677089915
297,cabo san lucas,22.8909,-109.9124,24.23,63,20,2.06,MX,1677089915
298,hasaki,35.7333,140.8333,6.22,75,100,8.19,JP,1677089834
299,milkovo,54.7167,158.6167,-24.08,95,45,1.69,RU,1677089917
300,banda aceh,5.5577,95.3222,25.65,79,98,2.49,ID,1677089918
301,zheleznodorozhnyy,55.7503,38.0042,-11.77,91,100,4.35,RU,1677089858
302,antanifotsy,-19.65,47.3167,15.94,99,98,1.73,MG,1677089919
303,ljutomer,46.5208,16.1975,9.55,82,100,2.01,SI,1677089919
304,padang,-0.9492,100.3543,24.03,89,100,1.69,ID,1677089920
305,codrington,-38.2667,141.9667,19.63,53,98,3.15,AU,1677089920
306,nikolskoye,59.7035,30.7861,-10.06,98,68,1.49,RU,1677089921
307,beipiao,41.7919,120.7792,-1.95,53,5,2.41,CN,1677089921
308,chicama,-7.8447,-79.1469,27.3,60,93,4.91,PE,1677089922
309,san antonio,29.4241,-98.4936,30.21,34,0,5.66,US,1677089917
310,vinderup,56.4752,8.7908,6.12,95,100,6.4,DK,1677089923
311,kyenjojo,0.6328,30.6214,18.38,70,98,1.4,UG,1677089923
312,chauk,20.8833,94.8167,22.97,54,0,4.21,MM,1677089923
313,port hardy,50.6996,-127.4199,-1.9,46,20,5.14,CA,1677089724
314,sistranda,63.7256,8.834,3.98,89,100,10.07,NO,1677089924
315,saquena,-4.6667,-73.5167,31.66,52,100,1.59,PE,1677089924
316,champerico,14.3,-91.9167,34.3,56,42,5.23,GT,1677089925
317,alice springs,-23.7,133.8833,20.75,60,23,0.0,AU,1677089651
318,ejura,7.3856,-1.3562,35.72,22,6,2.08,GH,1677089925
319,aklavik,68.2191,-135.0107,-31.0,76,0,3.6,CA,1677089926
320,bhachau,23.2833,70.35,21.87,54,87,3.79,IN,1677089926
321,talas,38.6908,35.5538,1.37,80,0,2.57,TR,1677089927
322,lasa,46.6166,10.7002,8.49,87,95,0.91,IT,1677089928
323,pagsangahan,13.2158,122.5431,24.45,84,75,5.46,PH,1677089928
324,simplicio mendes,-7.8539,-41.9103,35.96,28,31,3.93,BR,1677089929
325,kampene,-3.6,26.6667,22.29,94,100,0.53,CD,1677089929
326,komsomolskiy,40.4272,71.7189,5.4,81,27,5.14,UZ,1677089930
327,kemijarvi,66.7131,27.4306,-20.38,100,87,1.78,FI,1677089931
328,xingcheng,40.6167,120.7167,0.45,61,0,1.18,CN,1677089931
329,xiongzhou,25.1167,114.3,10.91,68,8,1.48,CN,1677089931
330,isangel,-19.55,169.2667,24.98,78,100,3.05,VU,1677089932
331,khilok,51.3674,110.4676,-19.84,99,68,1.28,RU,1677089932
332,sao gabriel da cachoeira,-0.1303,-67.0892,29.89,74,40,2.57,BR,1677089933
333,havelock,34.8791,-76.9013,25.98,76,64,3.13,US,1677089934
334,walvis bay,-22.9575,14.5053,20.53,73,9,3.09,NA,1677089676
335,puerto del rosario,28.5004,-13.8627,18.86,77,40,8.75,ES,1677089934
336,port blair,11.6667,92.75,25.86,75,47,3.27,IN,1677089740
337,punta de bombon,-17.1717,-71.7931,24.16,76,100,4.66,PE,1677089935
338,mangai,-4.05,19.5333,20.15,98,100,1.13,CD,1677089935
339,laguna,38.421,-121.4238,10.08,52,0,2.57,US,1677089936
340,ewa beach,21.3156,-158.0072,24.36,73,40,4.12,US,1677089936
341,samarai,-10.6167,150.6667,26.53,78,99,2.15,PG,1677089937
342,sharlyk,52.9167,54.75,-4.33,95,100,7.08,RU,1677089937
343,mangochi,-14.4782,35.2645,23.1,93,100,2.42,MW,1677089938
344,juegang,32.3174,121.1855,5.55,86,100,1.98,CN,1677089939
345,hongjiang,27.11,109.9956,6.38,90,100,1.39,CN,1677089940
346,krasnoselkup,65.7,82.4667,-7.43,90,100,8.85,RU,1677089940
347,amga,60.8953,131.9608,-21.0,100,99,0.6,RU,1677089941
348,yaan,7.3833,8.5667,33.78,13,71,1.16,NG,1677089942
349,yichang,30.7144,111.2847,5.87,82,93,0.35,CN,1677089943
350,voh,-20.9667,164.7,23.09,89,100,1.9,NC,1677089944
351,mantua,45.1667,10.7833,10.61,86,93,0.45,IT,1677089945
352,vondrozo,-22.8167,47.2833,21.48,99,90,1.85,MG,1677089945
353,boksitogorsk,59.474,33.8485,-19.66,100,98,1.22,RU,1677089946
354,tuatapere,-46.1333,167.6833,9.18,86,100,1.62,NZ,1677089947
355,norman wells,65.282,-126.8329,-32.98,68,40,0.0,CA,1677089948
356,gulbene,57.1777,26.7529,-14.52,98,61,0.95,LV,1677089949
357,necochea,-38.5473,-58.7368,32.78,28,3,4.29,AR,1677089950
358,belfast,54.5833,-5.9333,6.9,76,40,6.17,GB,1677089950
359,rassvet,46.8333,40.75,-4.17,79,53,3.19,RU,1677089951
360,kirakira,-10.4544,161.9205,26.08,85,88,1.27,SB,1677089952
361,axim,4.8699,-2.2405,27.92,78,51,4.31,GH,1677089789
362,sola,-13.8833,167.55,27.35,74,94,2.32,VU,1677089954
363,peshkovo,47.0187,39.3885,-2.29,76,13,2.06,RU,1677089955
364,bathsheba,13.2167,-59.5167,29.34,58,20,9.77,BB,1677089955
365,pala,9.3642,14.9046,29.51,12,53,3.04,TD,1677089956
366,novo aripuana,-5.1206,-60.3797,26.69,84,93,1.18,BR,1677089958
367,ust-omchug,61.15,149.6333,-38.81,100,82,1.33,RU,1677089958
368,zurrieq,35.8311,14.4742,13.73,94,20,1.54,MT,1677089959
369,paamiut,61.994,-49.6678,-9.47,84,96,7.29,GL,1677089960
370,vitim,59.4511,112.5578,-12.89,95,100,2.75,RU,1677089961
371,ancud,-41.8697,-73.8203,14.01,98,100,4.53,CL,1677089935
372,sakakah,29.9697,40.2064,16.76,27,0,5.89,SA,1677089962
373,southbridge,42.0751,-72.0334,5.26,60,81,0.45,US,1677089963
374,saint-joseph,-21.3667,55.6167,26.21,78,48,5.28,RE,1677089963
375,borogontsy,62.6683,131.1683,-27.07,100,100,0.91,RU,1677089964
376,valparaiso,-33.0393,-71.6273,20.56,72,75,5.14,CL,1677089957
377,maraba,-5.3686,-49.1178,29.1,79,75,2.06,BR,1677089965
378,jumla,29.2747,82.1838,4.62,70,67,1.64,NP,1677089966
379,northam,51.0333,-4.2167,5.9,87,58,6.87,GB,1677089967
380,marsh harbour,26.5412,-77.0636,24.61,73,6,5.72,BS,1677089967
381,mayo,38.8876,-76.5119,11.38,62,100,4.12,US,1677089968
382,bhawanipatna,19.9,83.1667,22.06,24,34,2.56,IN,1677089969
383,gobabis,-22.45,18.9667,29.11,25,41,5.21,NA,1677089971
384,ust-nera,64.5667,143.2,-41.21,96,63,0.98,RU,1677089972
385,kurume,33.3167,130.5167,7.3,76,100,1.76,JP,1677089973
386,bambanglipuro,-7.95,110.2833,24.41,91,100,1.71,ID,1677089974
387,klyuchi,52.2667,79.1667,-0.65,72,100,7.9,RU,1677089974
388,puerto madryn,-42.7692,-65.0385,29.09,24,51,4.79,AR,1677089975
389,gold coast,-28.0,153.4333,21.67,92,75,3.6,AU,1677089939
390,kushima,31.4583,131.2333,10.19,87,90,1.38,JP,1677089976
391,atambua,-9.1061,124.8925,23.44,89,100,0.48,ID,1677089976
392,comodoro rivadavia,-45.8667,-67.5,27.92,20,0,13.89,AR,1677089744
393,latung,5.5,120.8833,27.05,80,67,3.45,PH,1677089978
394,victor harbor,-35.5667,138.6167,25.93,44,65,3.69,AU,1677089978
395,kendal,54.3268,-2.7476,7.28,90,89,2.99,GB,1677089979
396,fort nelson,58.8053,-122.7002,-30.23,69,40,1.03,CA,1677089979
397,port-gentil,-0.7193,8.7815,27.46,81,96,5.92,GA,1677089980
398,gayny,60.3071,54.3241,-20.51,100,95,1.25,RU,1677089980
399,nador,35.174,-2.9287,16.14,82,0,1.03,MA,1677089963
400,yeppoon,-23.1333,150.7333,21.88,78,99,7.24,AU,1677089982
401,bose,45.4612,8.0137,10.57,86,100,0.2,IT,1677089982
402,kozhva,65.1073,57.0459,-18.26,99,99,1.23,RU,1677089983
403,road town,18.4167,-64.6167,28.05,57,40,3.09,VG,1677089984
404,praya,14.9215,-23.5087,24.3,64,40,11.32,CV,1677089984
405,tazovskiy,67.4667,78.7,-7.74,95,100,7.4,RU,1677089985
406,amarillo,35.222,-101.8313,16.88,37,0,13.89,US,1677089919
407,torbat-e jam,35.244,60.6225,10.72,36,0,1.6,IR,1677089986
408,nuuk,64.1835,-51.7216,-11.66,61,75,3.09,GL,1677089986
409,horodyshche,49.2849,31.4451,-1.66,67,73,2.18,UA,1677089987
410,qarqin,37.4185,66.0436,14.46,34,0,0.6,AF,1677089987
411,hamilton,39.1834,-84.5333,22.47,70,75,9.77,US,1677089762
412,sambava,-14.2667,50.1667,24.05,94,100,1.44,MG,1677089988
413,baykit,61.67,96.37,-22.71,100,93,0.59,RU,1677089990
414,presidencia roque saenz pena,-26.7852,-60.4388,30.65,49,100,2.76,AR,1677089990
415,rosh pinna,32.9689,35.5426,13.52,87,1,2.02,IL,1677089991
416,nyagan,62.1406,65.3936,-7.93,96,100,2.91,RU,1677089991
417,san juan,-31.5375,-68.5364,34.72,19,35,3.77,AR,1677089761
418,casablanca,33.5928,-7.6192,16.19,82,40,3.09,MA,1677089992
419,santa fe,-31.6333,-60.7,28.02,45,100,5.17,AR,1677089993
420,mabaruma,8.2,-59.7833,28.0,61,75,4.12,GY,1677089993
421,okha,53.5739,142.9478,-23.44,100,89,3.15,RU,1677089994
422,lamu,-2.2717,40.902,26.12,78,37,7.65,KE,1677089994
423,korem,12.5058,39.5228,13.52,30,10,1.87,ET,1677089995
424,rehoboth,-23.3167,17.0833,30.78,17,35,4.14,NA,1677089802
425,saint george,37.1041,-113.5841,5.24,42,0,8.23,US,1677089853
426,scranton,41.409,-75.6624,2.31,83,100,0.0,US,1677089841
427,panama city,8.9936,-79.5197,32.85,48,40,5.66,PA,1677089845
428,dubbo,-32.25,148.6167,15.07,82,1,4.63,AU,1677089785
429,requena,39.4883,-1.1004,8.07,57,13,2.09,ES,1677089997
430,yar-sale,66.8333,70.8333,-7.1,96,100,3.67,RU,1677089998
431,haines junction,60.7522,-137.5108,-24.03,70,99,0.0,CA,1677089998
432,north bend,43.4065,-124.2243,3.95,91,100,4.12,US,1677089735
433,miles city,46.4083,-105.8406,-20.46,77,100,5.66,US,1677089999
434,lompoc,34.6391,-120.4579,11.44,63,75,8.23,US,1677089730
435,vestmannaeyjar,63.4427,-20.2734,5.55,93,100,4.12,IS,1677090000
436,goderich,43.7501,-81.7165,-1.82,86,100,7.2,CA,1677090000
437,port elizabeth,-33.918,25.5701,21.29,89,0,1.54,ZA,1677089736
438,sibolga,1.7427,98.7792,24.76,88,100,1.13,ID,1677090001
439,grao mogol,-16.5594,-42.8897,25.74,62,67,1.75,BR,1677090002
440,shirone,37.7667,139.0167,0.56,69,85,1.38,JP,1677090003
441,teya,60.3778,92.6267,-22.31,100,75,1.46,RU,1677090005
442,deputatskiy,69.3,139.9,-28.44,96,95,1.99,RU,1677090006
443,muzhi,65.3667,64.6667,-13.58,97,100,3.44,RU,1677090007
444,lavrentiya,65.5833,-171.0,-4.32,97,100,3.63,RU,1677090008
445,ponta delgada,37.7333,-25.6667,14.4,88,40,3.6,PT,1677090009
446,kruisfontein,-34.0033,24.7314,18.82,82,1,1.49,ZA,1677090010
447,morondava,-20.2833,44.2833,25.76,86,100,6.03,MG,1677090011
448,villa rica,33.7321,-84.9191,25.99,68,96,6.58,US,1677089853
449,trofors,65.5333,13.4063,-2.07,95,100,3.71,NO,1677090014
450,qostanay,53.1667,63.5833,-8.84,92,100,4.0,KZ,1677090015
451,yurga,55.7231,84.8861,-9.23,96,71,2.65,RU,1677090017
452,obsharovka,53.125,48.8531,-9.28,89,100,9.63,RU,1677090017
453,sosua,19.7667,-70.5167,30.99,69,75,7.2,DO,1677090018
454,cacu,-18.5567,-51.1308,26.93,65,100,3.12,BR,1677090018
455,zhangye,38.9342,100.4517,-0.74,61,67,0.62,CN,1677090019
456,lachhmangarh,27.8214,75.0251,20.34,25,22,3.44,IN,1677090020
457,flin flon,54.7682,-101.865,-26.09,53,0,3.6,CA,1677090020
458,whitehorse,60.7161,-135.0538,-18.57,74,40,2.57,CA,1677090021
459,riyadh,24.6877,46.7219,19.08,15,0,3.94,SA,1677089927
460,sisimiut,66.9395,-53.6735,-20.15,88,97,4.32,GL,1677090022
461,katwa,23.6399,88.128,20.98,62,1,5.01,IN,1677090023
462,aldan,58.6031,125.3894,-19.44,99,100,2.26,RU,1677090023
463,waipawa,-41.4122,175.5153,11.68,84,100,5.22,NZ,1677090024
464,shenjiamen,29.9576,122.298,7.44,80,73,2.79,CN,1677090025
465,aromashevo,56.8602,68.6375,-0.04,98,100,4.29,RU,1677090025
466,la ligua,-32.4524,-71.2311,26.84,39,9,4.73,CL,1677090026
467,amapa,1.0,-52.0,26.45,77,99,1.72,BR,1677089736
468,lorengau,-2.0226,147.2712,26.86,83,100,6.54,PG,1677090028
469,constitucion,-35.3333,-72.4167,20.6,56,7,2.36,CL,1677089914
470,pacatuba,-3.9842,-38.6203,28.65,71,99,2.87,BR,1677090029
471,san clemente,33.427,-117.612,12.98,56,6,12.96,US,1677090030
472,antalaha,-14.9003,50.2788,24.13,94,100,0.33,MG,1677090031
473,antofagasta,-23.65,-70.4,24.3,68,3,3.86,CL,1677089812
474,nemuro,43.3236,145.575,-5.58,79,46,4.92,JP,1677090032
475,ostrovnoy,68.0531,39.5131,-7.28,91,98,4.29,RU,1677090033
476,kavaratti,10.5669,72.642,27.41,72,2,4.97,IN,1677090036
477,manicore,-5.8092,-61.3003,28.97,74,20,2.06,BR,1677089983
478,kalanguy,51.0167,116.5167,-21.82,100,63,1.84,RU,1677090037
479,mahibadhoo,3.7833,72.9667,27.38,75,56,4.41,MV,1677090038
480,mairana,-18.1167,-63.9333,23.1,54,100,2.89,BO,1677090039
481,pangkalanbuun,-2.6833,111.6167,23.35,96,100,1.3,ID,1677090039
482,saint-leu,-21.15,55.2833,26.48,73,41,0.83,RE,1677090040
483,ishinomaki,38.4167,141.3,0.27,71,79,2.1,JP,1677090041
484,chipinge,-20.1883,32.6236,17.76,84,100,0.9,ZW,1677090041
485,port maria,18.3685,-76.8895,28.92,75,18,6.2,JM,1677089851
486,jaumave,23.4167,-99.3833,32.12,13,73,3.15,MX,1677090043
487,anshun,26.25,105.9333,3.36,95,100,1.86,CN,1677090044
488,irbeyskoye,55.6428,95.4522,-18.51,100,81,1.34,RU,1677090045
489,catuday,16.2923,119.8062,24.29,76,60,3.92,PH,1677090046
490,poanas,25.7667,-103.6167,25.96,27,40,1.01,MX,1677090046
491,rafraf,37.1904,10.1837,13.17,78,5,2.73,TN,1677090047
492,kieta,-6.2167,155.6333,25.59,90,100,2.21,PG,1677090047
493,porangatu,-13.4408,-49.1486,29.7,61,49,0.95,BR,1677090048
494,chapleau,47.8405,-83.4034,-13.95,56,20,4.12,CA,1677090049
495,luang prabang,19.8856,102.1347,19.22,73,30,0.57,LA,1677090049
496,xam nua,20.4197,104.0439,12.75,99,53,1.18,LA,1677090050
497,osinki,52.8432,49.5132,-8.44,93,100,9.8,RU,1677090050
498,tigre,-34.426,-58.5796,33.08,34,0,5.66,AR,1677089873
499,floro,61.5996,5.0328,4.57,93,75,4.12,NO,1677090051
500,tual,-5.6667,132.75,27.99,79,100,4.81,ID,1677090052
501,inhambane,-23.865,35.3833,25.99,69,20,2.06,MZ,1677090052
502,mwinilunga,-11.7358,24.4293,19.62,90,100,0.07,ZM,1677090053
503,sayan,-11.1361,-77.1933,25.33,68,97,3.34,PE,1677090053
504,aguimes,27.9054,-15.4461,18.7,72,75,9.77,ES,1677089854
505,batagay,67.6333,134.6333,-37.99,97,72,1.37,RU,1677090054
506,quiindy,-25.9667,-57.2667,34.1,32,99,1.77,PY,1677090055
507,kalmunai,7.4167,81.8167,24.1,78,54,1.94,LK,1677090055
508,dilla,6.41,38.31,21.25,26,56,2.89,ET,1677090056
509,altay,47.8667,88.1167,-5.89,59,2,3.83,CN,1677090057
510,birjand,32.8663,59.2211,6.26,42,0,4.12,IR,1677090058
511,kendari,-3.945,122.4989,24.48,91,100,0.75,ID,1677090059
512,kloulklubed,7.0419,134.2556,27.62,72,84,5.2,PW,1677090060
513,yatou,37.15,122.3833,-0.06,85,37,2.89,CN,1677090060
514,aleksandrovsk-sakhalinskiy,50.8975,142.1561,-16.73,95,95,2.2,RU,1677090061
515,quatre cocos,-20.2078,57.7625,26.16,80,75,5.81,MU,1677090062
516,makokou,0.5738,12.8642,26.24,66,98,0.6,GA,1677090063
517,raudeberg,61.9875,5.1352,2.7,25,100,3.25,NO,1677090064
518,gaoual,11.75,-13.2,39.35,11,61,3.12,GN,1677090064
519,khandyga,62.6667,135.6,-30.67,99,99,0.28,RU,1677090065
520,mincivan,39.0294,46.7185,10.23,46,76,1.84,AZ,1677090066
521,buin,-33.7333,-70.75,31.18,19,0,4.6,CL,1677090067
522,atasu,48.6814,71.6433,-0.04,87,100,8.44,KZ,1677090067
523,lubao,14.9167,120.55,25.04,85,78,1.16,PH,1677090068
524,los llanos de aridane,28.6585,-17.9182,16.86,68,40,3.6,ES,1677090069
525,jardim,-21.4803,-56.1381,29.48,65,58,2.72,BR,1677089831
526,albanel,48.8832,-72.4487,-13.92,47,48,6.17,CA,1677090071
527,sioux lookout,50.1001,-91.917,-19.96,50,20,1.03,CA,1677090071
528,martvili,42.4144,42.3792,5.03,97,100,3.3,GE,1677090072
529,iralaya,15.0,-83.2333,27.5,65,3,5.75,HN,1677090074
530,broken hill,-31.95,141.4333,24.69,49,22,7.65,AU,1677090075
531,mecca,21.4267,39.8261,24.43,58,0,1.84,SA,1677090077
